,City,Cloudiness,Country,Date,Humidity,Lat,Lng,Max Temp,Wind Speed
0,los llanos de aridane,20,ES,1553328019,59,28.66,-17.92,62.6,13.87
1,puerto ayora,8,EC,1553328265,99,-0.74,-90.35,75.01,4.83
2,rikitea,88,PF,1553328267,99,-23.12,-134.97,78.88,20.49
3,opobo,,,,,,,,
4,norman wells,75,CA,1553324400,73,65.28,-126.83,19.4,19.46
5,mar del plata,24,AR,1553328093,67,-46.43,-67.52,56.65,19.93
6,ribeira grande,75,PT,1553326200,82,38.52,-28.7,57.2,18.34
7,upington,0,ZA,1553324400,25,-28.46,21.24,84.2,6.93
8,dikson,68,RU,1553328278,99,73.51,80.55,7.33,23.96
9,pensacola,1,US,1553328046,93,30.42,-87.22,53.01,4.27
10,ariquemes,68,BR,1553328282,95,-9.91,-63.03,74.38,2.04
11,porto torres,0,IT,1553328245,76,40.84,8.4,63,4.7
12,babu,76,CN,1553328286,91,23.23,104.89,56.38,3.15
13,alta floresta,64,BR,1553328289,95,-9.87,-56.08,72.31,1.59
14,lebu,20,ET,1553324400,43,8.96,38.73,71.6,11.41
15,sumbe,80,AO,1553328293,100,-11.2,13.84,80.32,1.81
16,kavieng,88,PG,1553328295,99,-2.57,150.8,84.37,11.43
17,vuktyl,44,RU,1553328297,69,63.86,57.31,32.26,5.39
18,georgetown,20,GY,1553324400,94,6.8,-58.16,71.6,2.24
19,aklavik,90,CA,1553324400,61,68.22,-135.01,15.8,14.99
20,louisbourg,,,,,,,,
21,carnarvon,0,ZA,1553328304,32,-30.97,22.13,78.79,9.19
22,hobart,75,AU,1553328140,68,-42.88,147.33,68,4.7
23,klaksvik,64,FO,1553327400,59,62.23,-6.59,37.4,38.03
24,canitas,,,,,,,,
25,alofi,0,NU,1553324400,83,-19.06,-169.92,75.2,5.82
26,mataura,44,NZ,1553328009,77,-46.19,168.86,64.99,1.01
27,busselton,0,AU,1553328080,23,-33.64,115.35,72,18.25
28,upernavik,24,GL,1553328318,100,72.79,-56.15,-11.31,2.59
29,taolanaro,,,,,,,,
30,port alfred,44,ZA,1553328071,84,-33.59,26.89,73,5.99
31,la asuncion,68,EC,1553328322,91,-1.64,-78.74,42.61,0.36
32,bontang,8,ID,1553328324,87,0.12,117.47,85.72,10.31
33,jacareacanga,80,BR,1553328326,93,-6.22,-57.76,76.72,1.92
34,vaini,0,IN,1553324400,15,15.34,74.49,95,6.93
35,bambous virieux,75,MU,1553328240,70,-20.34,57.76,87.8,10.29
36,pascagoula,90,US,1553328331,87,30.37,-88.56,51.8,2.59
37,nhulunbuy,75,AU,1553326200,79,-12.18,136.78,86,17.22
38,comodoro rivadavia,90,AR,1553324400,87,-45.87,-67.48,57.2,5.82
39,haibowan,,,,,,,,
40,oyama,75,JP,1553328303,75,36.31,139.8,50,3.36
41,dax,0,FR,1553328230,81,43.71,-1.05,55,2.24
42,muros,0,ES,1553328161,86,42.77,-9.06,57.99,5.39
43,namibe,90,AO,1553324400,94,-15.19,12.15,71.6,5.82
44,shenjiamen,0,CN,1553328348,87,29.96,122.3,51.7,12.21
45,bolshoy tsaryn,,,,,,,,
46,necochea,0,AR,1553327790,72,-38.55,-58.74,57.99,3
47,avera,1,US,1553328337,49,33.19,-82.53,55.4,5.82
48,ilulissat,20,GL,1553323800,63,69.22,-51.1,-9.41,13.87
49,yerbogachen,64,RU,1553328357,50,61.28,108.01,17.95,12.55
50,souillac,0,FR,1553328023,81,45.6,-0.6,46.99,1.12
51,waw,,,,,,,,
52,faanui,88,PF,1553328362,97,-16.48,-151.75,85.45,12.44
53,atuona,76,PF,1553328364,98,-9.8,-139.03,82.57,15.68
54,mocuba,88,MZ,1553328366,99,-16.84,36.99,77.98,4.05
55,kapaa,90,US,1553328211,83,22.08,-159.32,73.4,18.34
56,vershino-darasunskiy,64,RU,1553328371,54,52.35,115.52,33.79,13.22
57,broken hill,40,AU,1553324400,22,-31.97,141.45,91.4,13.87
58,bluff,56,AU,1553328375,59,-23.58,149.07,82.75,9.19
59,leningradskiy,64,RU,1553328377,70,69.38,178.42,-10.05,14
60,talnakh,0,RU,1553328379,77,69.49,88.39,6.79,4.94
61,sibolga,68,ID,1553328382,98,1.74,98.78,74.47,2.48
62,hermanus,36,ZA,1553328135,74,-34.42,19.24,75,11.01
63,saint anthony,90,US,1553328343,86,43.97,-111.68,39.2,4.7
64,morrinhos,88,BR,1553328388,97,-3.23,-40.13,74.02,2.59
65,nizhneyansk,,,,,,,,
66,nanortalik,0,GL,1553328391,100,60.14,-45.24,21.19,33.58
67,urumqi,,,,,,,,
68,prachuap khiri khan,12,TH,1553328393,34,11.81,99.79,96.07,3.6
69,presidencia roque saenz pena,0,AR,1553328395,78,-26.79,-60.44,60.43,6.62
70,doha,80,QA,1553324400,73,25.29,51.53,78.8,19.46
71,tuktoyaktuk,0,CA,1553328400,100,69.44,-133.03,1.48,24.07
72,barentsburg,,,,,,,,
73,butaritari,76,KI,1553328402,100,3.07,172.79,83.47,14.23
74,port elizabeth,1,US,1553328368,55,39.31,-74.98,37.99,19.46
75,verkhoyansk,32,RU,1553328406,73,67.55,133.39,-0.6,2.59
76,cape town,0,ZA,1553328071,68,-33.93,18.42,75,8.05
77,paamiut,64,GL,1553328411,100,61.99,-49.67,17.23,13.89
78,clyde river,75,CA,1553324400,74,70.47,-68.59,-22.01,12.75
79,ushuaia,90,AR,1553324400,93,-54.81,-68.31,46.4,6.93
80,hami,0,CN,1553328417,39,42.84,93.51,57.73,4.61
81,taburi,,,,,,,,
82,mahebourg,75,MU,1553328240,70,-20.41,57.7,87.8,10.29
83,bargal,,,,,,,,
84,victoria,75,BN,1553326200,62,5.28,115.24,89.6,4.7
85,vila praia de ancora,0,PT,1553328400,70,41.81,-8.85,57.99,6.93
86,sari,0,IR,1553324400,62,36.57,53.06,59,9.17
87,khatanga,68,RU,1553328428,74,71.98,102.47,-6.9,8.08
88,punta arenas,20,CL,1553328191,87,-53.16,-70.91,48,8.05
89,cidreira,64,BR,1553328433,100,-30.17,-50.22,60.16,3.49
90,ambon,90,FR,1553328426,100,47.55,-2.56,48,10.29
91,gunnedah,40,AU,1553326200,29,-30.98,150.25,89.6,14.99
92,abiy adi,,,,,,,,
93,tasiilaq,68,GL,1553323800,51,65.61,-37.64,14,5.82
94,a,,,,,,,,
95,grindavik,75,IS,1553328100,74,63.84,-22.43,33.8,6.93
96,barrow,0,AR,1553328444,87,-38.31,-60.23,57.73,13.67
97,lata,0,IN,1553328446,45,30.78,78.62,59.98,1.92
98,arman,68,RU,1553328448,69,59.7,150.17,21.73,11.32
99,hithadhoo,0,MV,1553328451,100,-0.6,73.08,86.35,1.7
100,bentiu,,,,,,,,
101,torbay,90,CA,1553328292,100,47.66,-52.73,41,31.09
102,ginir,0,ET,1553328455,28,7.14,40.71,83.83,7.4
103,thompson,20,CA,1553324400,79,55.74,-97.86,28.4,6.85
104,urucara,68,BR,1553328460,93,-2.54,-57.76,77.35,2.93
105,matara,92,PE,1553328462,98,-13.74,-72.9,44.59,1.7
106,longyearbyen,75,NO,1553327400,85,78.22,15.63,21.2,6.93
107,ust-kamchatsk,,,,,,,,
108,padilla,40,CO,1553324400,94,3.23,-76.31,68,3.36
109,ust-maya,12,RU,1553328469,58,60.42,134.54,4.63,4.72
110,maloshuyka,,,,,,,,
111,crotone,0,IT,1553323800,62,39.09,17.12,55.4,10.29
112,la ronge,5,CA,1553324400,69,55.1,-105.3,37.4,3.36
113,viligili,,,,,,,,
114,whitehaven,8,US,1553328456,81,35.03,-90.03,44.6,3.36
115,kahului,20,US,1553328235,68,20.89,-156.47,71.6,8.05
116,kavaratti,0,IN,1553328480,100,10.57,72.64,82.93,8.75
117,narsaq,0,GL,1553323800,67,60.91,-46.05,17.6,18.34
118,albany,90,US,1553328320,79,42.65,-73.75,30,23.04
119,maragogi,8,BR,1553328487,96,-9.01,-35.22,76.72,4.83
120,avarua,36,CK,1553326200,88,-21.21,-159.78,80.6,3.36
121,mitsamiouli,20,KM,1553324400,62,-11.38,43.28,87.8,6.93
122,oeiras do para,92,BR,1553328493,100,-2,-49.85,74.56,5.17
123,saint-francois,0,FR,1553326200,86,46.42,3.91,39.2,2.24
124,yellowknife,90,CA,1553328028,72,62.45,-114.38,17.6,16.11
125,ahipara,56,NZ,1553328500,98,-35.17,173.16,65.38,2.37
126,poum,20,MK,1553326200,27,41.28,20.71,53.6,10.29
127,hambantota,40,LK,1553325000,63,6.12,81.12,93.2,6.93
128,sitka,92,US,1553328095,98,37.17,-99.65,44.01,5.01
129,broome,75,GB,1553328487,76,52.47,1.45,51.01,6.93
130,neuquen,0,AR,1553324400,52,-38.95,-68.06,64.4,5.82
131,sept-iles,90,CA,1553328125,82,50.2,-66.38,35.01,8.05
132,belmonte,0,PT,1553328516,75,40.36,-7.35,54.85,4.83
133,cherskiy,0,RU,1553328518,30,68.75,161.3,-6.9,2.71
134,tsihombe,,,,,,,,
135,agadez,0,NE,1553324400,22,16.97,7.99,80.6,6.62
136,bredasdorp,0,ZA,1553328135,73,-34.53,20.04,73,10.29
137,moree,24,AU,1553328039,38,-29.46,149.84,89.6,9.17
138,araouane,48,ML,1553328527,16,18.9,-3.53,76.09,12.44
139,mount isa,40,AU,1553326200,51,-20.73,139.49,86,14.99
140,grand river south east,,,,,,,,
141,kinablangan,0,PH,1553328531,100,7.69,126.55,79.96,10.98
142,soe,24,EE,1553328496,64,57.91,26.05,39.99,10.29
143,murray bridge,80,AU,1553328509,60,-35.12,139.28,75,4
144,bilibino,0,RU,1553328538,65,68.06,166.44,-9.78,2.26
145,emerald,32,AU,1553327996,38,-23.53,148.16,91.4,12.75
146,elizabeth city,1,US,1553328498,65,36.3,-76.22,44.6,13.11
147,samusu,,,,,,,,
148,iringa,,,,,,,,
149,kundiawa,92,PG,1553328545,100,-6.02,144.97,58.81,1.7
150,castro,75,CL,1553324400,93,-42.48,-73.76,53.6,5.82
151,biak,12,ID,1553328549,75,-0.91,122.88,86.08,4.94
152,palkonda,68,IN,1553328551,47,18.6,83.76,97.06,3.15
153,chokurdakh,8,RU,1553328554,45,70.62,147.9,-15.36,5.17
154,stromness,5,CA,1553328539,62,42.87,-79.55,27,12.75
155,peniche,0,PT,1553328423,54,39.36,-9.38,59,8.05
156,debre zeyit,,,,,,,,
157,ponta delgada,75,PT,1553328235,82,37.73,-25.67,60.8,12.75
158,nantucket,90,US,1553328554,86,41.28,-70.1,37.4,23.04
159,saskylakh,32,RU,1553328565,75,71.97,114.09,-7.17,12.21
160,port hardy,75,CA,1553324400,75,50.7,-127.42,44.6,3.36
161,san jeronimo,92,PE,1553328569,98,-13.65,-73.37,44.59,1.7
162,parabel,8,RU,1553328571,81,58.71,81.5,34.69,3.27
163,saint-philippe,90,CA,1553328546,100,45.36,-73.48,33.8,6.93
164,hualmay,24,PE,1553328576,96,-11.1,-77.61,64.21,3.83
165,caravelas,92,BR,1553328578,100,-17.73,-39.27,78.25,18.48
166,blagoyevo,80,RU,1553328580,77,63.37,47.92,35.05,4.94
167,illoqqortoormiut,,,,,,,,
168,ostrovnoy,68,RU,1553328582,86,68.05,39.51,28.39,31.56
169,port macquarie,44,AU,1553328305,69,-31.43,152.91,78.8,8.05
170,mataundh,0,IN,1553328587,20,25.44,80.16,92.29,14.67
171,bethel,90,US,1553327580,84,60.79,-161.76,39.2,4.7
172,qaanaaq,8,GL,1553328592,39,77.48,-69.36,-26.7,7.07
173,pietersburg,,,,,,,,
174,alexandroupoli,0,GR,1553328012,66,40.85,25.88,62.01,4.7
175,quthing,44,LS,1553328596,47,-30.4,27.7,73.48,5.61
176,sao filipe,32,CV,1553328598,98,14.9,-24.5,69.7,13.67
177,kruisfontein,0,ZA,1553328600,80,-34,24.73,72.49,7.63
178,hongan,,,,,,,,
179,arraial do cabo,92,BR,1553328603,89,-22.97,-42.02,77.89,5.95
180,sines,0,PT,1553328066,61,37.96,-8.87,55,4
181,bababe,,,,,,,,
182,podor,56,MR,1553328608,77,16.65,-14.96,67.27,12.44
183,high level,1,CA,1553324400,69,58.52,-117.13,37.4,6.93
184,verkhnyaya balkariya,40,RU,1553326200,43,43.13,43.46,50,8.95
185,coihaique,56,CL,1553324400,66,-45.58,-72.07,51.8,5.82
186,daxian,,,,,,,,
187,novikovo,32,UA,1553328617,90,45.05,34.56,42.61,13.78
188,sentyabrskiy,,,,,,,,
189,cordele,1,US,1553328617,75,31.96,-83.78,50,6.4
190,okhotsk,76,RU,1553328621,78,59.36,143.24,24.61,6.29
191,katsuura,75,JP,1553327619,100,33.93,134.5,48.2,18.34
192,olinda,40,EC,1553328600,88,-2.03,-79.75,79,9.17
193,hilo,90,US,1553328618,78,19.71,-155.08,73.99,4.7
194,port lincoln,92,AU,1553328631,92,-34.72,135.86,66.73,13
195,kyra,,,,,,,,
196,waingapu,68,ID,1553328634,82,-9.65,120.26,81.4,12.77
197,geresk,,,,,,,,
198,mucuri,92,BR,1553328636,100,-18.08,-39.55,74.56,15.01
199,ust-kuyga,0,RU,1553328638,61,70,135.55,0.31,2.93
200,serenje,24,ZM,1553328640,69,-13.23,30.22,74.65,14.45
201,tiksi,48,RU,1553328643,71,71.64,128.87,10.39,3.04
202,makakilo city,1,US,1553328628,73,21.35,-158.09,75.2,5.82
203,tocopilla,32,CL,1553328647,100,-22.09,-70.2,56.74,0.36
204,longlac,,,,,,,,
205,loandjili,75,CG,1553324400,94,-4.77,11.87,77,4.7
206,esperance,75,TT,1553328608,83,10.24,-61.45,78.01,6.93
207,cayenne,20,GF,1553326200,78,4.94,-52.33,78.8,9.17
208,kaitangata,88,NZ,1553328656,95,-46.28,169.85,56.38,5.95
209,saint-augustin,0,FR,1553328550,76,44.83,-0.61,50,3.83
210,dunedin,92,NZ,1553328508,86,-45.87,170.5,61,5.01
211,uusikaupunki,88,FI,1553327400,93,60.8,21.41,37.4,16.11
212,kidal,88,ML,1553328665,13,18.44,1.41,77.71,11.21
213,new norfolk,75,AU,1553328614,68,-42.78,147.06,68,4.7
214,kaseda,75,JP,1553328190,100,31.42,130.32,53.6,19.46
215,bonavista,76,CA,1553328040,86,48.65,-53.11,39.99,4
216,bandarbeyla,56,SO,1553328674,100,9.49,50.81,78.79,6.96
217,dingle,20,PH,1553328676,48,11,122.67,87.61,10.98
218,rawson,40,AR,1553326620,63,-43.3,-65.11,62.6,5.82
219,karanpura,0,IN,1553328681,50,29.1,75.09,83.65,8.63
220,severo-kurilsk,88,RU,1553328683,92,50.68,156.12,30.91,22.73
221,muzhi,48,RU,1553328685,96,65.4,64.7,32.44,8.41
222,omboue,88,GA,1553328687,100,-1.57,9.26,82.03,8.41
223,sorland,40,NO,1553325600,75,67.67,12.69,41,26.4
224,khani,90,GE,1553326200,81,41.96,42.96,48.2,6.93
225,hofn,0,IS,1553328694,100,64.25,-15.21,35.68,19.37
226,ruatoria,,,,,,,,
227,balimo,,,,,,,,
228,kodiak,40,US,1553328668,26,39.95,-94.76,48,10.29
229,molango,20,MX,1553328699,99,20.79,-98.73,54.49,1.7
230,tomatlan,0,MX,1553328701,82,19.93,-105.25,59.71,1.7
231,gorontalo,48,ID,1553328703,78,0.54,123.06,80.32,3.83
232,bathsheba,75,BB,1553324400,78,13.22,-59.52,77,20.8
233,iranshahr,40,IR,1553324400,38,27.21,60.69,75.2,6.93
234,katangli,32,RU,1553328709,89,51.71,143.23,15.61,14.12
235,northam,40,GB,1553328676,93,51.04,-4.21,50,4.7
236,las palmas,64,PE,1553328715,97,-6.53,-76.35,72.76,0.58
237,koslan,80,RU,1553328717,75,63.46,48.9,34.87,4.72
238,tornio,0,FI,1553328559,47,61.12,27.27,37.99,18.34
239,pemba,12,MZ,1553328677,100,-12.97,40.52,83.2,5.5
240,belushya guba,,,,,,,,
241,padang,20,ID,1553324400,70,-0.92,100.36,87.8,4.7
242,wampusirpi,,,,,,,,
243,ajdabiya,68,LY,1553328726,58,30.75,20.22,67.36,11.77
244,guarapari,75,BR,1553326482,83,-20.67,-40.5,73.99,8.05
245,ulladulla,90,AU,1553328083,83,-35.36,150.48,73.4,5.82
246,vilyuysk,80,RU,1553328733,82,63.75,121.63,23.89,5.39
247,provideniya,92,RU,1553328735,100,64.42,-173.23,14.89,9.53
248,ramsar,40,IR,1553324400,76,36.92,50.64,57.2,9.17
249,ishigaki,75,JP,1553324400,77,24.34,124.16,64.4,18.34
250,port augusta,90,AU,1553328468,88,-32.49,137.76,73,4.7
251,san pedro,0,AR,1553328348,88,-33.68,-59.66,55.99,2.82
252,palana,8,RU,1553328747,62,59.08,159.95,23.35,10.76
253,cheuskiny,,,,,,,,
254,lavrentiya,92,RU,1553328750,99,65.58,-170.99,14.26,10.42
255,saleaula,,,,,,,,
256,lagos,20,NG,1553324400,94,6.46,3.39,78.8,11.54
257,port blair,0,IN,1553328754,100,11.67,92.75,84.01,5.95
258,bellevue,90,US,1553328640,87,47.61,-122.19,50,11.41
259,taybad,0,IR,1553328761,97,34.74,60.78,53.41,3.71
260,parksepa,12,EE,1553328496,64,57.91,26.98,39.99,10.29
261,sinnamary,100,GF,1553328765,94,5.38,-52.96,79.96,13.22
262,novovasylivka,76,UA,1553328767,72,48.2,37.04,39.19,16.24
263,ambilobe,20,MG,1553328770,95,-13.19,49.05,83.74,4.61
264,laredo,90,US,1553328305,77,27.51,-99.51,70,9.17
265,sivas,0,TR,1553323800,64,39.75,37.01,36,6.93
266,acarau,,,,,,,,
267,lake city,90,US,1553328515,86,38.03,-107.32,26.6,3.15
268,rakai,0,UG,1553328778,83,-0.71,31.4,79.06,9.31
269,gali,92,GE,1553328781,81,42.63,41.74,40.18,2.48
270,codrington,75,AU,1553328730,57,-28.95,153.24,82,18.34
271,lucapa,48,AO,1553328785,91,-8.42,20.74,74.29,4.16
272,planeta rica,44,CO,1553328787,81,8.41,-75.58,75.46,5.73
273,santa maria,12,BR,1553328497,86,-29.69,-53.81,48.01,2.71
274,san vicente,0,SV,1553328642,54,13.64,-88.78,78.8,3.36
275,tiznit,56,MA,1553328799,75,29.7,-9.73,62.41,2.82
276,diego de almagro,0,CL,1553328801,92,-26.39,-70.05,54.85,0.69
277,hobyo,48,SO,1553328804,72,5.35,48.53,84.37,13
278,burica,,,,,,,,
279,moussoro,8,TD,1553328806,18,13.64,16.49,99.31,11.1
280,ancud,75,CL,1553324400,93,-41.87,-73.83,53.6,5.82
281,motala,36,SE,1553328116,87,58.54,15.04,48.2,16.11
282,itarema,88,BR,1553328813,97,-2.92,-39.92,74.02,2.59
283,toftir,,,,,,,,
284,sur,36,OM,1553328815,74,22.57,59.53,79.96,11.21
285,santa isabel,92,CO,1553328818,100,4.71,-75.1,62.86,1.92
286,port-de-paix,,,,,,,,
287,fairbanks,20,US,1553328639,51,64.84,-147.72,41,8.05
288,taraz,56,KZ,1553326200,51,42.89,71.39,60.8,6.71
289,lompoc,1,US,1553328760,93,34.64,-120.46,53.6,5.39
290,kapit,44,MY,1553328827,63,2.02,112.94,87.07,2.26
291,yar-sale,48,RU,1553328829,96,66.83,70.83,26.41,8.19
292,saint-louis,0,CH,1553328769,70,47.59,7.56,53.01,5.82
293,ippy,32,CF,1553328834,38,6.26,21.2,91.12,9.75
294,sorvag,,,,,,,,
295,tawang,76,BT,1553328836,51,27.59,91.87,42.88,1.7
296,beloha,24,MG,1553328838,54,-25.17,45.06,87.79,14.45
297,constitucion,0,MX,1553328841,69,23.99,-104.67,39.91,4.94
298,arlit,92,NE,1553328844,36,18.74,7.39,76.36,10.65
299,andenes,,,,,,,,
300,jamestown,100,AU,1553328847,65,-33.21,138.6,69.43,9.98
301,tara,40,JP,1553328790,74,33,130.15,55.4,18.34
302,rocha,8,UY,1553328851,88,-34.48,-54.34,53.41,3.71
303,khandyga,8,RU,1553328854,54,62.65,135.58,-0.78,2.71
304,guiglo,92,CI,1553328856,78,6.55,-7.5,78.07,4.16
305,umzimvubu,,,,,,,,
306,kshenskiy,36,RU,1553328858,100,51.85,37.72,36.58,16.24
307,honningsvag,0,NO,1553328860,90,70.98,25.97,36.67,11.65
308,geraldton,5,CA,1553324400,66,49.72,-86.95,12.2,4.7
309,rameshki,64,RU,1553328865,93,57.35,36.05,34.33,4.61
310,hasaki,75,JP,1553328140,86,35.73,140.83,43,4.7
311,leshan,,,,,,,,
312,ojinaga,1,US,1553328132,17,29.56,-104.41,64.4,6.93
313,chuy,0,UY,1553328872,89,-33.69,-53.46,56.83,3.71
314,vila franca do campo,75,PT,1553328833,82,37.72,-25.43,60.8,12.75
315,puerto escondido,8,MX,1553328876,100,15.86,-97.07,83.29,8.3
316,hay river,5,CA,1553324400,85,60.82,-115.79,24.8,6.93
317,marcona,,,,,,,,
318,atar,0,MR,1553328881,53,20.52,-13.05,67.9,5.73
319,east london,0,ZA,1553328000,65,-33.02,27.91,78.8,14.99
320,tiszalok,0,HU,1553325300,66,48.02,21.38,50,11.41
321,iqaluit,90,CA,1553328766,76,63.75,-68.52,-7.01,6.93
322,guerrero negro,0,MX,1553328890,100,27.97,-114.04,53.5,8.75
323,tshane,0,BW,1553328892,32,-24.02,21.87,88.33,20.15
324,ashington,0,GB,1553328828,93,55.18,-1.57,44.01,8.05
325,pozo colorado,0,PY,1553328897,82,-23.49,-58.8,66.73,4.61
326,maraba,90,BR,1553324400,100,-5.35,-49.1,75.2,2.24
327,pudozh,76,RU,1553328901,99,61.81,36.54,32.98,11.65
328,turtas,32,RU,1553328903,74,58.94,69.13,40.81,4.61
329,nikolskoye,0,RU,1553328886,64,59.7,30.79,37.99,11.18
330,rio gallegos,90,AR,1553324400,93,-51.62,-69.22,50,5.82
331,russell,0,AR,1553328000,76,-33.01,-68.8,57.2,3.36
332,nagato,20,JP,1553328092,56,34.35,131.14,51.8,18.34
333,kangaatsiaq,44,GL,1553328915,100,68.31,-53.46,-9.15,2.71
334,ust-kalmanka,0,RU,1553328917,72,52.12,83.31,50.71,6.96
335,rio cuarto,0,AR,1553324400,93,-33.13,-64.35,57.2,4.7
336,dusetos,0,LT,1553328922,64,55.75,25.85,43.42,9.42
337,ponta do sol,92,BR,1553328924,94,-20.63,-46,62.95,6.62
338,batabano,20,CU,1553328786,100,22.72,-82.29,51.8,3.6
339,barra do garcas,12,BR,1553328928,96,-15.89,-52.26,69.25,3.04
340,kumba,56,CM,1553328931,95,4.64,9.44,78.79,3.94
341,pinheiro,44,BR,1553328933,96,-2.53,-45.09,71.86,2.37
342,vakhrushev,20,RU,1553328935,67,48.99,142.86,11.47,6.73
343,salalah,40,OM,1553323800,65,17.01,54.1,82.4,14.99
344,kupang,20,ID,1553326200,62,-10.16,123.6,87.8,12.75
345,luderitz,0,NA,1553328942,90,-26.65,15.16,65.2,7.4
346,vanimo,0,PG,1553328944,99,-2.67,141.3,82.84,16.91
347,nouadhibou,75,MR,1553324400,88,20.93,-17.03,64.4,8.05
348,amderma,,,,,,,,
349,bengkulu,,,,,,,,
350,papara,40,BR,1553328498,88,-3.98,-38.73,79,3.36
351,ashland,1,US,1553328935,74,38.48,-82.64,37,4.38
352,bilma,80,NE,1553328953,17,18.69,12.92,84.01,11.54
353,evensk,0,RU,1553328955,98,61.92,159.24,18.22,16.46
354,montepuez,88,MZ,1553328958,100,-13.13,39,76.54,5.39
355,saint george,0,GR,1553328804,62,39.45,22.34,57.2,8.05
356,ilo,0,PE,1553328962,97,-17.65,-71.34,55.84,2.37
357,praia da vitoria,20,PT,1553328909,93,38.73,-27.07,60.8,32.79
358,luanda,75,AO,1553328000,74,-8.83,13.24,82.4,9.17
359,brahmapuri,,,,,,,,
360,trairi,92,BR,1553328673,100,-3.28,-39.27,76.27,8.75
361,santa cruz,90,US,1553328968,76,36.97,-122.03,55.99,5.82
362,gijon,0,ES,1553328970,75,43.54,-5.66,57.99,6.93
363,vaitupu,,,,,,,,
364,kijang,40,KR,1553324400,22,35.24,129.21,55.4,14.99
365,zabol,75,IR,1553324400,30,31.03,61.49,71.6,9.17
366,berea,75,US,1553328706,68,41.37,-81.85,32,9.17
367,lardos,20,GR,1553328964,68,36.09,28.02,66.2,4.7
368,leh,20,IN,1553328818,87,34.16,77.58,8.14,0.58
369,iberia,88,PE,1553328987,94,-11.41,-69.49,73.39,2.15
370,vega de alatorre,56,MX,1553328989,95,20.03,-96.65,61.33,3.83
371,port hueneme,1,US,1553328989,76,34.15,-119.2,54,4.72
372,kumluca,0,TR,1553328993,29,36.37,30.29,59.89,0.92
373,payo,32,ID,1553328996,100,-3.75,103.64,81.58,5.73
374,fare,56,PF,1553328998,95,-16.7,-151.02,84.91,11.32
375,visnes,75,NO,1553328939,70,59.36,5.22,43,23.04
376,vardo,75,US,1553328934,59,39.62,-77.74,36,6.93
377,antrim,0,GB,1553328905,86,54.72,-6.22,46.99,8.05
378,vite,0,ES,1553328948,86,42.89,-8.54,54,2.82
379,shelburne,1,CA,1553329002,62,44.08,-80.2,23,12.75
380,bac lieu,,,,,,,,
381,kuche,,,,,,,,
382,wanxian,68,CN,1553329012,84,30.8,108.39,50.08,2.48
383,malwan,,,,,,,,
384,bermejo,92,AR,1553329014,96,-22.73,-64.34,59.98,2.04
385,areka,0,ET,1553329016,26,7.07,37.71,85.63,4.5
386,savannah bight,0,HN,1553329018,100,16.45,-85.85,77.62,9.75
387,sulurpeta,,,,,,,,
388,yaan,20,NG,1553329021,79,7.38,8.57,85.81,10.65
389,antalaha,56,MG,1553329023,84,-14.9,50.28,85.36,9.98
390,mont-dore,0,NC,1553326200,58,-22.23,166.53,82.4,4.7
391,mwinilunga,0,ZM,1553329020,61,-11.73,24.43,78.16,7.18
392,isangel,76,VU,1553329029,100,-19.55,169.27,80.23,17.25
393,mys shmidta,,,,,,,,
394,teya,5,MX,1553328951,64,21.05,-89.07,69.8,11.41
395,escanaba,1,US,1553328902,92,45.75,-87.06,21.99,3.6
396,byron bay,75,AU,1553329029,57,-28.65,153.62,81,18.34
397,mount gambier,40,AU,1553324400,72,-37.83,140.78,66.2,18.34
398,markapur,0,IN,1553329041,30,15.74,79.27,100.39,6.62
399,dzhusaly,,,,,,,,
400,verkhovazhye,0,RU,1553329043,100,60.75,42.05,33.07,3.94
401,tarauaca,32,BR,1553329045,97,-8.16,-70.77,72.49,2.59
402,mineros,90,BO,1553324400,83,-17.12,-63.23,71.6,8.05
403,el faiyum,,,,,,,,
404,nadvoitsy,88,RU,1553329050,74,63.89,34.27,34.33,14.79
405,lagoa,0,PT,1553329028,62,37.14,-8.45,57.99,13.87
406,petropavlovsk-kamchatskiy,75,RU,1553326200,88,53.05,158.65,32,15.66
407,mitla,,,,,,,,
408,bahia de caraquez,75,EC,1553324400,94,-0.6,-80.42,75.2,2.24
409,george,20,NG,1553324400,94,6.63,3.35,78.8,11.54
410,cozumel,,,,,,,,
411,maralal,0,KE,1553329061,65,1.1,36.7,76.54,6.73
412,batagay-alyta,48,RU,1553329063,84,67.8,130.41,0.67,2.93
413,paita,32,PE,1553329065,80,-5.09,-81.11,71.05,2.82
414,carutapera,24,BR,1553329068,99,-1.2,-46.02,74.65,1.92
415,saldanha,0,PT,1553329006,43,41.42,-6.55,51.61,4.16
416,ulaanbaatar,0,MN,1553328000,13,47.92,106.92,42.8,13.42
417,caraballeda,40,VE,1553326292,88,10.61,-66.85,75.2,10.98
418,emba,0,CY,1553329031,52,34.81,32.42,68,5.82
419,fukue,20,JP,1553328906,43,35.03,136.69,55.99,24.16
420,porto recanati,0,IT,1553329073,66,43.44,13.66,62.01,4.7
421,krutinka,0,RU,1553329083,100,56.01,71.51,32.26,4.38
422,boulder city,1,US,1553328997,46,35.98,-114.83,57.2,8.05
423,belyy yar,0,RU,1553326200,7,53.6,91.39,55.4,4.47
424,maniitsoq,32,GL,1553329089,100,65.42,-52.9,-10.5,9.42
425,aripuana,80,BR,1553329091,91,-9.17,-60.63,76.45,2.15
426,inhambane,75,MZ,1553328000,66,-23.87,35.38,84.2,13.87
427,yulara,92,AU,1553324400,9,-25.24,130.99,105.8,6.93
428,conceicao do araguaia,20,BR,1553329085,90,-8.26,-49.26,73.39,4.05
429,viedma,32,AR,1553329100,64,-40.81,-62.99,58.81,8.86
430,hervey bay,0,AU,1553328909,54,-25.3,152.85,84.2,11.41
431,scarborough,56,GB,1553329071,81,54.28,-0.41,46.99,6.93
432,mnogovershinnyy,0,RU,1553329106,51,53.94,139.92,4.09,5.06
433,airai,32,TL,1553328967,63,-8.93,125.41,80.41,1.7
434,the valley,75,AI,1553328082,73,18.22,-63.06,77,9.17
435,surab,0,PK,1553329113,42,28.49,66.26,68.08,10.65
436,butajira,0,ET,1553329115,27,8.12,38.38,78.43,5.95
437,galiwinku,,,,,,,,
438,smirnykh,44,RU,1553329117,56,49.74,142.83,10.84,7.4
439,altay,0,CN,1553329119,66,47.83,88.13,33.43,2.59
440,goderich,0,CA,1553328958,78,43.74,-81.71,27,15.01
441,los angeles,1,US,1553328914,82,34.05,-118.24,57.2,2.37
442,seoul,75,KR,1553327400,39,37.57,126.98,48.2,2.24
443,rotifunk,92,SL,1553329128,63,8.23,-12.68,81.49,5.5
444,port pirie,90,AU,1553324400,88,-33.18,138.01,69.8,4.7
445,lakes entrance,68,AU,1553329047,67,-37.88,147.99,75.99,6.96
446,carballo,0,ES,1553329128,100,43.21,-8.69,54,6.93
447,kogon,90,UZ,1553326200,76,39.73,64.54,51.8,13.87
448,waipawa,0,NZ,1553327296,81,-39.94,176.59,60.01,1.01
449,praia,75,BR,1553324400,72,-20.25,-43.81,66.2,8.05
450,axim,56,GH,1553329143,94,4.87,-2.24,84.19,7.18
451,manadhoo,0,MV,1553329146,100,5.77,73.38,85.81,9.31
452,conceicao da barra,92,BR,1553329148,100,-18.59,-39.73,76.81,17.13
453,vredendal,24,ZA,1553329150,27,-31.68,18.49,86.71,3.15
454,san clemente,1,US,1553329146,93,33.43,-117.61,54,1.7
455,skjervoy,56,NO,1553329155,96,70.03,20.97,38.56,13
456,husavik,0,CA,1553328920,84,50.56,-96.99,28.99,5.01
457,san juan,40,PH,1553328957,49,14.6,121.03,91.4,13.87
458,huanren,8,CN,1553329162,48,41.26,125.37,30.55,6.73
459,mackenzie,90,CA,1553324400,80,55.34,-123.09,33.8,2.24
460,meulaboh,36,ID,1553329163,100,4.14,96.13,83.92,8.19
461,burnie,48,AU,1553329084,97,-41.05,145.91,63,4
462,fevralsk,,,,,,,,
463,wasilla,90,US,1553328977,80,61.58,-149.44,39.99,8.05
464,namatanai,36,PG,1553329173,98,-3.66,152.44,82.93,14.67
465,pisco,0,PE,1553324400,88,-13.71,-76.2,68,4.7
466,krasnoselkup,,,,,,,,
467,pevek,0,RU,1553329177,31,69.7,170.27,-21.3,1.7
468,deolali,0,IN,1553329179,20,19.94,73.86,96.16,4.16
469,deputatskiy,0,RU,1553329182,45,69.3,139.9,-16.71,3.49
470,sorong,88,ID,1553329184,100,-0.86,131.25,82.21,12.66
471,bolungarvik,,,,,,,,
472,glencoe,36,ZA,1553329186,81,-28.17,30.16,68.26,3.94
473,imeni poliny osipenko,0,RU,1553329189,71,52.42,136.49,8.41,3.04
474,vigia del fuerte,44,CO,1553329191,94,6.58,-76.89,70.06,2.93
475,queimadas,0,BR,1553324400,88,-7.36,-35.9,73.4,3.71
476,san patricio,0,PY,1553329195,79,-26.98,-56.83,57.28,3.71
477,miraflores,88,CO,1553329199,97,5.2,-73.14,52.24,1.25
478,locri,5,IT,1553329055,67,38.24,16.26,64.99,1.12
479,aurangabad,0,IN,1553329193,24,19.87,75.33,96.61,4.38
480,severomuysk,68,RU,1553329205,72,56.17,113.57,16.33,4.5
481,mecca,0,SA,1553329208,13,21.43,39.83,94.63,4.16
482,kikwit,36,CD,1553329210,95,-5.04,18.82,81.04,4.27
483,olafsvik,,,,,,,,
484,saint-georges,88,CA,1553329009,97,46.12,-70.67,33.01,5.01
485,hihifo,,,,,,,,
486,kirakira,88,SB,1553329214,98,-10.46,161.92,85.09,12.44
487,pacific grove,90,US,1553329005,87,36.62,-121.92,55.99,5.06
488,hakvik,,,,,,,,
489,chabahar,24,IR,1553329103,87,25.29,60.65,77.35,9.75
490,nalut,0,LY,1553329221,67,31.86,10.98,57.19,4.72
491,julio de castilhos,0,BR,1553329223,91,-29.23,-53.68,49.72,2.15
492,zhigansk,76,RU,1553329225,69,66.77,123.37,13.36,2.71
493,constantine,75,DZ,1553326200,100,36.36,6.61,48.2,6.93
494,teguldet,80,RU,1553329061,64,57.31,88.17,39.46,1.03
495,kazlu ruda,0,LT,1553327400,41,54.77,23.5,42.8,9.17
496,beni suef,20,EG,1553329234,36,29.07,31.1,74.83,9.53
497,severo-zadonsk,0,RU,1553329236,94,54.04,38.4,33.25,12.66
498,zharkent,0,KZ,1553329239,70,44.17,80,45.67,2.26
499,komarikhinskiy,75,RU,1553326200,86,58.1,57.12,33.8,4.47
500,chhabra,0,IN,1553328978,26,24.67,76.85,89.59,8.19
501,kloulklubed,75,PW,1553323800,70,7.04,134.26,84.2,10.29
502,les cayes,44,HT,1553329247,100,18.19,-73.75,75.55,7.29
503,plettenberg bay,0,ZA,1553329249,90,-34.05,23.37,70.6,7.18
504,la salle,1,US,1553329144,86,41.33,-89.09,30.2,4.7
505,jardim,56,BR,1553329255,89,-21.48,-56.15,69.43,2.71
506,thinadhoo,0,MV,1553329257,100,0.53,72.93,85.36,4.61
507,tura,0,IN,1553329259,48,25.52,90.21,83.83,7.4
508,manono,68,CD,1553329261,77,-7.3,27.4,80.5,9.64
509,sungairaya,8,ID,1553329263,43,0.7,108.9,92.65,5.61
510,zelenoborskiy,92,RU,1553329266,82,66.84,32.36,32.17,15.01
511,portland,75,US,1553329183,100,45.52,-122.67,48.2,2.59
512,isugod,0,PH,1553329271,88,9.34,118.12,84.55,12.77
513,mahibadhoo,20,MV,1553329273,100,3.78,72.97,85.45,7.96
514,nueva loja,88,EC,1553329275,96,0.08,-76.88,69.61,2.15
515,kemi,90,FI,1553325600,94,65.74,24.56,32,17.22
516,skibotn,75,NO,1553327400,93,69.39,20.27,37.4,12.75
517,utrera,0,ES,1553329138,71,37.18,-5.78,57.2,13.87
518,pitanga,0,BR,1553329135,94,-24.76,-51.76,57.91,2.93
519,sanming,80,CN,1553329286,98,26.24,117.6,55.03,2.37
520,sola,75,NO,1553329202,70,58.89,5.65,43,12.75
521,wenchi,92,GH,1553329290,71,7.74,-2.1,81.85,9.98
522,ha giang,88,VN,1553329293,97,22.83,104.99,63.67,1.92
523,moshkovo,0,RU,1553326200,64,55.3,83.61,35.6,6.71
524,romanovka,92,RU,1553329297,94,51.74,42.76,33.16,17.25
525,peruibe,100,BR,1553329038,100,-24.32,-47,78.25,12.77
526,ransang,,,,,,,,
527,zhob,8,PK,1553329301,99,31.34,69.45,54.58,3.83
528,talaya,0,RU,1553328917,59,55.79,84.89,42.01,6.71
529,obo,0,CF,1553329306,77,5.39,26.49,90.76,4.72
530,ketchikan,90,US,1553327580,93,55.34,-131.65,46.4,6.4
531,buenos aires,20,AR,1553329094,72,-34.61,-58.44,66.2,6.93
532,nicoya,8,CR,1553329015,86,10.15,-85.45,68,32.99
533,batie,0,FR,1553329016,50,45.06,5.82,55.99,5.82
534,auki,0,NG,1553329317,29,12.18,6.51,90.13,4.5
535,rutana,88,BI,1553329319,98,-3.93,29.99,66.91,5.73
536,antofagasta,0,CL,1553324400,77,-23.65,-70.4,60.8,2.24
537,christchurch,56,NZ,1553329280,87,-43.53,172.64,62.01,9.17
538,san cristobal,75,EC,1553329023,100,-0.39,-78.55,55.4,2.24
539,sherlovaya gora,24,RU,1553329328,30,50.53,116.31,39.46,19.04
540,boffa,80,GN,1553329330,70,10.18,-14.04,77.71,4.72
541,half moon bay,90,US,1553329216,93,37.46,-122.43,55.99,12.75
542,kamyshlov,0,RU,1553329335,98,56.85,62.71,38.29,6.17
543,hamilton,5,CA,1553329214,67,43.26,-79.87,26.01,10.29
544,marawi,0,PH,1553328973,79,8,124.29,82,3
545,terme,75,TR,1553327400,53,41.21,36.97,54,2.24
546,touros,40,BR,1553324400,94,-5.2,-35.46,78.8,4.7
547,vila velha,40,BR,1553329100,88,-3.71,-38.6,79,3.36
548,aflu,,,,,,,,
549,ravar,0,IR,1553329348,25,31.27,56.81,68.8,5.73
550,namuac,0,PH,1553329350,80,18.61,121.17,79.24,12.77
551,aswan,0,EG,1553328000,14,24.09,32.9,87.8,5.82
552,kieta,88,PG,1553329210,95,-6.22,155.63,80.77,2.82
553,doka,0,SD,1553329357,15,13.52,35.76,102.55,6.17
554,salumbar,0,IN,1553326200,19,24.14,74.05,87.8,1.12
555,veraval,80,FR,1553329333,100,49.65,0.71,48.99,2.24
556,zelezna ruda,0,CZ,1553329350,81,49.14,13.24,55,2.24
557,kaoma,0,ZM,1553329365,52,-14.8,24.8,82.75,16.8
558,tabou,92,CI,1553329368,98,4.42,-7.36,82.57,8.75
559,vedaranniyam,,,,,,,,
560,gold coast,0,AU,1553329115,78,-28,153.41,84,12.75
561,hunza,,,,,,,,
562,hovd,75,NO,1553329308,88,63.83,10.7,39,12.75
563,port hedland,75,AU,1553326620,94,-20.31,118.58,80.6,28.86
564,port-gentil,20,GA,1553328000,79,-0.72,8.78,84.2,4.7
565,faya,20,SA,1553324400,40,18.39,42.45,73.4,12.75
566,minden,75,US,1553329337,86,38.95,-119.77,45,3.36
567,ugoofaaru,0,MV,1553329383,98,5.67,73,86.71,8.41
568,ladario,0,PT,1553329385,63,40.7,-7.74,54.76,2.37
569,magistralnyy,64,RU,1553329387,55,56.17,107.45,29.56,8.41
570,nome,1,US,1553329123,93,30.04,-94.42,64,3.36
571,piuma,100,BR,1553329226,98,-20.84,-40.72,77.35,5.39
572,dodge city,90,US,1553329232,93,37.75,-100.02,46.4,14.99
573,toliary,,,,,,,,
574,concarneau,0,FR,1553329384,87,47.88,-3.92,48.2,6.93
575,porto novo,40,BR,1553328000,100,-23.68,-45.44,64.4,4.7
576,robertsport,44,LR,1553329400,100,6.75,-11.37,80.14,8.75
577,garowe,0,SO,1553329403,46,8.41,48.48,86.53,7.52
578,great falls,1,US,1553328999,86,47.5,-111.29,41,8.05
579,saint-pierre,90,FR,1553328000,100,48.95,4.24,44.6,9.17
580,trelew,40,AR,1553326620,63,-43.25,-65.31,62.6,5.82
581,along,92,IN,1553329412,98,28.17,94.8,56.02,1.59
582,acuna,,,,,,,,
583,kutum,12,SD,1553329414,13,14.2,24.66,93.55,10.54
584,andra,24,RU,1553329416,89,62.52,65.89,35.5,3.38
585,lagunas,64,PE,1553329418,94,-5.23,-75.68,75.28,2.15
586,puerto ayacucho,44,CO,1553329421,88,5.66,-67.63,72.4,2.59
587,havelock,1,US,1553329209,45,34.88,-76.9,48.2,8.05
588,carire,92,BR,1553329425,98,-3.95,-40.47,71.59,3.6
589,lavumisa,92,ZA,1553328000,94,-27.31,31.88,75.2,8.05
590,le port,0,FR,1553329365,66,42.87,1.37,75.99,1.7
591,nizhneangarsk,56,RU,1553329432,68,55.78,109.57,24.52,5.5
592,salinas,90,US,1553329427,93,36.67,-121.66,55.99,5.06
593,laiyang,0,CN,1553329437,26,36.98,120.7,42.79,11.21
594,oktyabrskiy,75,RU,1553328617,92,55.61,37.97,37.99,8.95
595,benguela,24,AO,1553329302,92,-12.58,13.4,83.29,1.59
596,sakakah,,,,,,,,
597,vaitape,64,PF,1553329443,95,-16.52,-151.75,85.45,11.54
598,porto santo,,,,,,,,
599,thiruvananthapuram,20,IN,1553326200,63,8.48,76.92,91.4,9.17
600,korla,,,,,,,,
601,tezu,92,IN,1553329448,100,27.93,96.16,52.42,1.03
602,cockburn town,8,TC,1553329252,100,21.46,-71.14,77.53,8.75
603,bokoro,,,,,,,,
604,tabiauea,,,,,,,,
605,japura,44,ID,1553329452,51,-0.42,102.29,92.65,3.15
606,ukiah,90,US,1553329098,93,39.15,-123.21,53.01,2.37
607,jiddah,,,,,,,,
608,tucurui,92,BR,1553329457,96,-3.77,-49.67,74.47,2.71
609,attawapiskat,,,,,,,,
610,harnosand,0,SE,1553328918,72,62.63,17.94,46.99,9.17
611,bumba,48,CD,1553329461,84,2.18,22.47,83.83,3.94
612,binzhou,0,CN,1553329463,23,37.38,117.96,49.36,5.73
613,egvekinot,88,RU,1553329466,69,66.32,-179.17,0.49,11.77
614,tsienyane,,,,,,,,
615,liverpool,20,GB,1553329266,65,53.41,-2.98,48,4.7
616,ngukurr,,,,,,,,
617,te anau,20,NZ,1553329470,82,-45.41,167.72,53.95,2.59
618,palabuhanratu,,,,,,,,
619,tuatapere,20,NZ,1553329206,79,-46.13,167.69,64,2.71
620,luxor,0,EG,1553328000,20,25.7,32.65,82.4,2.24
621,dejen,8,ET,1553329477,35,10.16,38.15,81.85,1.92
622,nogent-le-rotrou,90,FR,1553328920,100,48.32,0.82,46,6.93
623,vestmannaeyjar,92,IS,1553329481,100,63.44,-20.27,35.77,14.67
624,port said,0,EG,1553329483,16,25.34,30.55,90.31,4.16
625,dharchula,0,IN,1553329485,71,29.85,80.53,48.19,0.36
